% (lat/lon/height=WGS84/ellipsoidal,Q=1:fix,2:float,3:sbas,4:dgps,5:single,6:ppp,ns=# of satellites)
%  GPST          latitude(deg) longitude(deg)  height(m)   Q  ns   sdn(m)   sde(m)   sdu(m)  sdne(m)  sdeu(m)  sdun(m) age(s)  ratio
2054 462716.000   44.408866055    8.929340049   106.7363   5   5  22.7347  10.7009  19.2955 -14.4569 -10.9018  18.6825   0.00    0.0
2054 462717.000   44.408849801    8.929351080   106.3537   5   5  22.7267  10.6959  19.2946 -14.4494 -10.8966  18.6787   0.00    0.0
2054 462718.000   44.408836014    8.929360455   105.6025   5   5  22.7187  10.6909  19.2937 -14.4420 -10.8913  18.6749   0.00    0.0
2054 462719.000   44.408824926    8.929372897   105.7715   5   5  22.7106  10.6858  19.2928 -14.4345 -10.8860  18.6712   0.00    0.0
2054 462720.000   44.408818772    8.929383348   106.1085   5   5  22.7026  10.6808  19.2918 -14.4271 -10.8808  18.6674   0.00    0.0
2054 462721.000   44.408805098    8.929398460   105.6691   5   5  22.6946  10.6758  19.2909 -14.4196 -10.8755  18.6637   0.00    0.0
2054 462722.000   44.408799301    8.929407040   105.3519   5   5  22.6866  10.6707  19.2900 -14.4121 -10.8702  18.6599   0.00    0.0
2054 462723.000   44.408790469    8.929416964   105.0752   5   5  22.6786  10.6657  19.2891 -14.4047 -10.8649  18.6562   0.00    0.0
2054 462724.000   44.408783263    8.929426704   105.3571   5   5  22.6706  10.6607  19.2881 -14.3972 -10.8597  18.6524   0.00    0.0
2054 462725.000   44.408779767    8.929431962   105.5239   5   5  22.6626  10.6557  19.2872 -14.3898 -10.8544  18.6487   0.00    0.0
2054 462726.000   44.408775746    8.929441438   106.3921   5   5  22.6546  10.6507  19.2863 -14.3824 -10.8491  18.6449   0.00    0.0
2054 462727.000   44.408767560    8.929451098   106.4272   5   5  22.6466  10.6456  19.2853 -14.3749 -10.8438  18.6412   0.00    0.0
2054 462728.000   44.408754619    8.929464139   105.8775   5   5  22.6386  10.6406  19.2844 -14.3675 -10.8385  18.6374   0.00    0.0
2054 462729.000   44.408750091    8.929472334   105.8888   5   5  22.6306  10.6356  19.2835 -14.3600 -10.8332  18.6337   0.00    0.0
2054 462730.000   44.408742340    8.929479755   105.7032   5   5  22.6226  10.6306  19.2825 -14.3526 -10.8280  18.6299   0.00    0.0
2054 462731.000   44.408738484    8.929483711   106.2106   5   5  22.6147  10.6256  19.2816 -14.3452 -10.8227  18.6261   0.00    0.0
2054 462732.000   44.408734418    8.929490976   106.6906   5   5  22.6067  10.6207  19.2806 -14.3377 -10.8174  18.6224   0.00    0.0
2054 462733.000   44.408727640    8.929497955   106.0357   5   5  22.5987  10.6157  19.2797 -14.3303 -10.8121  18.6186   0.00    0.0
2054 462734.000   44.408707859    8.929502555   109.1389   5   5  22.5907  10.6107  19.2787 -14.3229 -10.8068  18.6149   0.00    0.0
2054 462735.000   44.408708315    8.929506841   109.3830   5   5  22.5828  10.6057  19.2778 -14.3155 -10.8015  18.6111   0.00    0.0
2054 462736.000   44.408706016    8.929511665   109.7664   5   5  22.5748  10.6007  19.2768 -14.3080 -10.7962  18.6074   0.00    0.0
2054 462737.000   44.408727402    8.929515838   106.4762   5   5  22.5668  10.5957  19.2759 -14.3006 -10.7909  18.6036   0.00    0.0
2054 462738.000   44.408692130    8.929525593   110.5278   5   5  22.5589  10.5908  19.2749 -14.2932 -10.7856  18.5999   0.00    0.0
2054 462739.000   44.408687755    8.929526999   111.5236   5   5  22.5509  10.5858  19.2740 -14.2858 -10.7803  18.5961   0.00    0.0
2054 462740.000   44.408695003    8.929527137   111.0511   5   5  22.5430  10.5808  19.2730 -14.2784 -10.7750  18.5923   0.00    0.0
2054 462741.000   44.408675369    8.929533412   113.6737   5   5  22.5351  10.5759  19.2721 -14.2710 -10.7697  18.5886   0.00    0.0
2054 462742.000   44.408673069    8.929533002   115.4472   5   5  22.5271  10.5709  19.2711 -14.2636 -10.7644  18.5848   0.00    0.0
2054 462743.000   44.408663611    8.929539752   115.8615   5   5  22.5192  10.5659  19.2701 -14.2562 -10.7591  18.5811   0.00    0.0
2054 462744.000   44.408666751    8.929533893   119.2860   5   5  22.5112  10.5610  19.2692 -14.2488 -10.7538  18.5773   0.00    0.0
2054 462745.000   44.408659613    8.929535305   119.7694   5   5  22.5033  10.5560  19.2682 -14.2414 -10.7485  18.5735   0.00    0.0
2054 462746.000   44.408647024    8.929537730   120.9370   5   5  22.4954  10.5511  19.2673 -14.2340 -10.7432  18.5698   0.00    0.0
2054 462747.000   44.408634144    8.929541420   122.9291   5   5  22.4875  10.5462  19.2663 -14.2266 -10.7379  18.5660   0.00    0.0
2054 462748.000   44.408628883    8.929543532   122.8249   5   5  22.4795  10.5412  19.2653 -14.2192 -10.7326  18.5623   0.00    0.0
2054 462749.000   44.408630035    8.929547424   121.0118   5   5  22.4716  10.5363  19.2643 -14.2118 -10.7273  18.5585   0.00    0.0
2054 462750.000   44.408622230    8.929552484   120.6973   5   5  22.4637  10.5313  19.2634 -14.2044 -10.7219  18.5548   0.00    0.0
2054 462751.000   44.408613802    8.929554781   121.6886   5   5  22.4558  10.5264  19.2624 -14.1971 -10.7166  18.5510   0.00    0.0
2054 462752.000   44.408591355    8.929555815   123.4011   5   5  22.4479  10.5215  19.2614 -14.1897 -10.7113  18.5472   0.00    0.0
2054 462753.000   44.408517321    8.929535576   116.4815   5   5  22.4400  10.5166  19.2604 -14.1823 -10.7060  18.5435   0.00    0.0
2054 462812.000   44.408722415    8.929573306   124.7923   5   6  13.7823   5.4056  17.3156  -6.3520  -5.9899  13.9156   0.00    0.0
2054 462813.000   44.408726411    8.929576443   126.3630   5   6  13.7834   5.4050  17.3169  -6.3506  -5.9878  13.9170   0.00    0.0
2054 462815.000   44.408769152    8.929549587   128.6480   5   6  13.7856   5.4037  17.3194  -6.3479  -5.9836  13.9198   0.00    0.0
2054 462816.000   44.408761296    8.929550788   126.0828   5   6  13.7867   5.4030  17.3206  -6.3466  -5.9816  13.9212   0.00    0.0
2054 462817.000   44.408771997    8.929532677   126.2109   5   6  13.7878   5.4024  17.3219  -6.3453  -5.9795  13.9226   0.00    0.0
2054 462818.000   44.408773406    8.929534187   126.5638   5   6  13.7889   5.4018  17.3232  -6.3439  -5.9774  13.9240   0.00    0.0
2054 462819.000   44.408797215    8.929517068   125.3697   5   6  13.7900   5.4011  17.3244  -6.3425  -5.9753  13.9253   0.00    0.0
2054 462820.000   44.408833632    8.929476680   125.5860   5   6  13.7910   5.4005  17.3257  -6.3412  -5.9732  13.9267   0.00    0.0
2054 462821.000   44.408821559    8.929482408   125.6685   5   6  13.7921   5.3998  17.3269  -6.3398  -5.9711  13.9281   0.00    0.0
2054 462822.000   44.408828494    8.929470849   123.9072   5   6  13.7932   5.3992  17.3282  -6.3385  -5.9689  13.9295   0.00    0.0
2054 462823.000   44.408870625    8.929439297   123.6584   5   6  13.7943   5.3986  17.3295  -6.3371  -5.9668  13.9309   0.00    0.0
2054 462824.000   44.408870950    8.929432472   121.9551   5   6  13.7954   5.3979  17.3307  -6.3358  -5.9647  13.9323   0.00    0.0
2054 462825.000   44.408841526    8.929450633   118.1250   5   6  13.7965   5.3973  17.3320  -6.3344  -5.9626  13.9337   0.00    0.0
2054 462826.000   44.408833102    8.929458326   118.0619   5   6  13.7976   5.3966  17.3332  -6.3330  -5.9605  13.9350   0.00    0.0
2054 462827.000   44.408834962    8.929439678   117.1967   5   6  13.7987   5.3960  17.3345  -6.3317  -5.9584  13.9364   0.00    0.0
2054 462828.000   44.408837328    8.929444648   116.4458   5   6  13.7997   5.3954  17.3357  -6.3303  -5.9563  13.9378   0.00    0.0
2054 462829.000   44.408852458    8.929417670   116.8817   5   6  13.8008   5.3947  17.3369  -6.3289  -5.9541  13.9392   0.00    0.0
2054 462830.000   44.408862925    8.929403786   116.8608   5   6  13.8019   5.3941  17.3382  -6.3276  -5.9520  13.9406   0.00    0.0
2054 462831.000   44.408852630    8.929414942   115.4167   5   6  13.8030   5.3934  17.3394  -6.3262  -5.9499  13.9419   0.00    0.0
2054 462832.000   44.408844197    8.929408893   114.6589   5   6  13.8041   5.3928  17.3407  -6.3248  -5.9477  13.9433   0.00    0.0
2054 462833.000   44.408829825    8.929433095   113.2431   5   6  13.8051   5.3922  17.3419  -6.3234  -5.9456  13.9447   0.00    0.0
2054 462834.000   44.408772372    8.929427722   106.0423   5   6  13.8062   5.3915  17.3431  -6.3221  -5.9435  13.9461   0.00    0.0
2054 462835.000   44.408736872    8.929408653   100.9157   5   6  13.8073   5.3909  17.3444  -6.3207  -5.9413  13.9474   0.00    0.0
2054 462836.000   44.408822915    8.929402432   110.7981   5   6  13.8084   5.3902  17.3456  -6.3193  -5.9392  13.9488   0.00    0.0
2054 462837.000   44.408860401    8.929405010   114.3804   5   6  13.8094   5.3896  17.3468  -6.3179  -5.9370  13.9501   0.00    0.0
2054 462838.000   44.408811557    8.929403325   109.0718   5   6  13.8105   5.3890  17.3481  -6.3165  -5.9349  13.9515   0.00    0.0
2054 462839.000   44.408802773    8.929415233   108.2380   5   6  13.8116   5.3883  17.3493  -6.3152  -5.9327  13.9529   0.00    0.0
2054 462840.000   44.408738197    8.929399498    98.7028   5   6  13.8127   5.3877  17.3505  -6.3138  -5.9306  13.9542   0.00    0.0
2054 462841.000   44.408791359    8.929406079   105.8736   5   6  13.8137   5.3871  17.3517  -6.3124  -5.9284  13.9556   0.00    0.0
2054 462842.000   44.408771089    8.929415733   104.0746   5   6  13.8148   5.3864  17.3530  -6.3110  -5.9263  13.9569   0.00    0.0
2054 462843.000   44.408771897    8.929452375    97.5085   5   6  13.8158   5.3858  17.3542  -6.3096  -5.9241  13.9583   0.00    0.0
2054 462844.000   44.408779801    8.929460341    97.3257   5   6  13.8169   5.3851  17.3554  -6.3082  -5.9220  13.9596   0.00    0.0
2054 462845.000   44.409096310    8.929221981   109.7941   5   5  21.7289  10.0784  19.1648 -13.5145 -10.2115  18.1984   0.00    0.0
2054 462846.000   44.409101979    8.929211116   104.5840   5   5  21.7214  10.0738  19.1637 -13.5073 -10.2061  18.1947   0.00    0.0
2054 462847.000   44.409105339    8.929213965   107.6998   5   5  21.7138  10.0692  19.1626 -13.5002 -10.2007  18.1909   0.00    0.0
2054 462848.000   44.409130484    8.929220290   111.6326   5   5  21.7063  10.0646  19.1615 -13.4931 -10.1952  18.1872   0.00    0.0
2054 462849.000   44.409120220    8.929206669   105.8269   5   5  21.6988  10.0600  19.1604 -13.4859 -10.1898  18.1834   0.00    0.0
2054 462850.000   44.409113522    8.929190276   102.0710   5   5  21.6912  10.0554  19.1593 -13.4788 -10.1843  18.1797   0.00    0.0
2054 462851.000   44.409129397    8.929178444    99.5595   5   5  21.6837  10.0508  19.1582 -13.4717 -10.1789  18.1760   0.00    0.0
2054 462852.000   44.409120195    8.929161070    96.9360   5   5  21.6762  10.0462  19.1571 -13.4646 -10.1735  18.1722   0.00    0.0
2054 462853.000   44.409165746    8.929170013    99.8228   5   5  21.6686  10.0416  19.1560 -13.4574 -10.1680  18.1685   0.00    0.0
2054 462854.000   44.409179580    8.929161803    97.8126   5   5  21.6611  10.0371  19.1549 -13.4503 -10.1626  18.1647   0.00    0.0
2054 462855.000   44.409184858    8.929153440    95.3600   5   5  21.6536  10.0325  19.1538 -13.4432 -10.1572  18.1610   0.00    0.0
2054 462856.000   44.409193288    8.929148489    98.2145   5   5  21.6461  10.0279  19.1527 -13.4361 -10.1517  18.1573   0.00    0.0
2054 462857.000   44.409222232    8.929133882    94.6385   5   5  21.6385  10.0234  19.1516 -13.4290 -10.1463  18.1535   0.00    0.0
2054 462858.000   44.409240742    8.929108501    88.7157   5   5  21.6310  10.0188  19.1505 -13.4219 -10.1408  18.1498   0.00    0.0
2054 462859.000   44.408958237    8.929237856    58.7912   5   6   5.6843   6.4559  10.0985  -4.4988   4.6723  -3.1883   0.00    0.0
2054 462860.000   44.408972853    8.929236464    58.2978   5   6   5.6836   6.4562  10.0973  -4.4984   4.6728  -3.1881   0.00    0.0
2054 462861.000   44.408979028    8.929247465    57.0560   5   6   5.6830   6.4564  10.0962  -4.4980   4.6734  -3.1879   0.00    0.0
2054 462862.000   44.408985558    8.929249150    59.0175   5   6   5.6824   6.4567  10.0951  -4.4976   4.6739  -3.1878   0.00    0.0
2054 462863.000   44.409002691    8.929218520    57.8075   5   6   5.6818   6.4569  10.0940  -4.4972   4.6745  -3.1876   0.00    0.0
2054 462864.000   44.409027826    8.929180200    57.5524   5   6   5.6811   6.4572  10.0929  -4.4968   4.6750  -3.1874   0.00    0.0
2054 462865.000   44.409018778    8.929208961    56.5835   5   6   5.6805   6.4574  10.0918  -4.4964   4.6756  -3.1872   0.00    0.0
2054 462866.000   44.409005404    8.929226754    54.4314   5   6   5.6799   6.4577  10.0906  -4.4960   4.6761  -3.1870   0.00    0.0
2054 462867.000   44.409005193    8.929223065    53.5337   5   6   5.6792   6.4580  10.0895  -4.4956   4.6767  -3.1869   0.00    0.0
2054 462868.000   44.409001630    8.929242994    52.2261   5   6   5.6786   6.4582  10.0884  -4.4952   4.6772  -3.1867   0.00    0.0
2054 462869.000   44.408993781    8.929259273    52.8423   5   6   5.6780   6.4585  10.0873  -4.4948   4.6778  -3.1865   0.00    0.0
2054 462870.000   44.408988966    8.929262852    53.3652   5   6   5.6774   6.4587  10.0862  -4.4944   4.6783  -3.1863   0.00    0.0
2054 462871.000   44.408970071    8.929315356    54.1140   5   6   5.6767   6.4590  10.0851  -4.4940   4.6789  -3.1862   0.00    0.0
2054 462872.000   44.408989388    8.929293199    53.5063   5   6   5.6761   6.4593  10.0839  -4.4936   4.6794  -3.1860   0.00    0.0
2054 462873.000   44.408992220    8.929276197    54.7490   5   6   5.6755   6.4595  10.0828  -4.4932   4.6800  -3.1858   0.00    0.0
2054 462874.000   44.408980174    8.929277352    55.1439   5   6   5.6748   6.4598  10.0817  -4.4929   4.6805  -3.1856   0.00    0.0
2054 462875.000   44.408972345    8.929285827    55.2989   5   6   5.6742   6.4600  10.0806  -4.4925   4.6811  -3.1854   0.00    0.0
2054 462876.000   44.408967839    8.929306108    57.5313   5   6   5.6736   6.4603  10.0795  -4.4921   4.6816  -3.1853   0.00    0.0
2054 462877.000   44.408961061    8.929294180    59.4351   5   6   5.6730   6.4605  10.0784  -4.4917   4.6822  -3.1851   0.00    0.0
2054 462878.000   44.408950034    8.929295550    61.7846   5   6   5.6723   6.4608  10.0772  -4.4913   4.6827  -3.1849   0.00    0.0
2054 462879.000   44.408943837    8.929297131    61.8198   5   6   5.6717   6.4611  10.0761  -4.4909   4.6833  -3.1847   0.00    0.0
2054 462880.000   44.408923448    8.929300481    64.6138   5   6   5.6711   6.4613  10.0750  -4.4905   4.6838  -3.1845   0.00    0.0
2054 462881.000   44.408892920    8.929305183    66.9701   5   6   5.6705   6.4616  10.0739  -4.4901   4.6843  -3.1843   0.00    0.0
2054 462882.000   44.408871711    8.929310041    70.1045   5   6   5.6698   6.4618  10.0728  -4.4897   4.6849  -3.1842   0.00    0.0
2054 462883.000   44.408868043    8.929310229    69.9618   5   6   5.6692   6.4621  10.0717  -4.4893   4.6854  -3.1840   0.00    0.0
2054 462884.000   44.408888096    8.929306163    66.1691   5   6   5.6686   6.4624  10.0706  -4.4889   4.6860  -3.1838   0.00    0.0
2054 462885.000   44.408863264    8.929307268    69.5669   5   6   5.6680   6.4626  10.0694  -4.4885   4.6865  -3.1836   0.00    0.0
2054 462886.000   44.408845827    8.929303378    72.3985   5   6   5.6673   6.4629  10.0683  -4.4881   4.6871  -3.1834   0.00    0.0
2054 462887.000   44.408837024    8.929311903    68.8233   5   6   5.6667   6.4632  10.0672  -4.4877   4.6876  -3.1832   0.00    0.0
2054 462888.000   44.408820832    8.929313880    70.9466   5   6   5.6661   6.4634  10.0661  -4.4873   4.6881  -3.1831   0.00    0.0
2054 462889.000   44.408816524    8.929316836    69.3098   5   6   5.6655   6.4637  10.0650  -4.4869   4.6887  -3.1829   0.00    0.0
2054 462890.000   44.408813682    8.929318294    65.8468   5   6   5.6648   6.4639  10.0639  -4.4865   4.6892  -3.1827   0.00    0.0
2054 462891.000   44.408796967    8.929321251    64.8344   5   6   5.6642   6.4642  10.0628  -4.4861   4.6898  -3.1825   0.00    0.0
2054 462892.000   44.408794987    8.929321600    64.5273   5   6   5.6636   6.4645  10.0616  -4.4857   4.6903  -3.1823   0.00    0.0
2054 462893.000   44.408784077    8.929325680    63.3110   5   6   5.6630   6.4647  10.0605  -4.4854   4.6908  -3.1821   0.00    0.0
2054 462894.000   44.408768069    8.929326699    61.7535   5   6   5.6623   6.4650  10.0594  -4.4850   4.6914  -3.1820   0.00    0.0
2054 462895.000   44.408767296    8.929326749    61.6015   5   6   5.6617   6.4652  10.0583  -4.4846   4.6919  -3.1818   0.00    0.0
2054 462896.000   44.408759098    8.929328946    61.0057   5   6   5.6611   6.4655  10.0572  -4.4842   4.6925  -3.1816   0.00    0.0
2054 462957.000   44.408660946    8.929467155    68.2071   5   6   4.6459   5.3642   9.2087  -1.4284   2.4252   1.8419   0.00    0.0
2054 462958.000   44.408680626    8.929501551    66.4162   5   6   4.6458   5.3643   9.2078  -1.4279   2.4267   1.8405   0.00    0.0
2054 462959.000   44.408681824    8.929504959    66.8932   5   6   4.6457   5.3644   9.2070  -1.4273   2.4282   1.8391   0.00    0.0
2054 462960.000   44.408687749    8.929500477    68.9001   5   6   4.6456   5.3645   9.2062  -1.4268   2.4297   1.8377   0.00    0.0
2054 462961.000   44.408718136    8.929519766    67.3830   5   6   4.6455   5.3646   9.2054  -1.4262   2.4312   1.8363   0.00    0.0
2054 462962.000   44.408758634    8.929538394    60.0475   5   6   4.6453   5.3647   9.2046  -1.4257   2.4327   1.8349   0.00    0.0
2054 462963.000   44.408774812    8.929571503    54.3623   5   6   4.6452   5.3647   9.2038  -1.4251   2.4342   1.8335   0.00    0.0
2054 462964.000   44.408799182    8.929568667    51.4794   5   6   4.6451   5.3648   9.2030  -1.4245   2.4357   1.8321   0.00    0.0
2054 462965.000   44.408886936    8.929459703    40.4616   5   5   5.7379   6.9552   9.9847  -4.1156   4.8054  -3.1147   0.00    0.0
2054 462976.000   44.408918056    8.929322981    43.4678   5   6   5.6118   6.4869   9.9683  -4.4531   4.7342  -3.1665   0.00    0.0
2054 462977.000   44.408910065    8.929329471    49.3809   5   6   5.6112   6.4872   9.9672  -4.4527   4.7347  -3.1663   0.00    0.0
2054 462978.000   44.408914415    8.929326854    55.8770   5   6   5.6106   6.4875   9.9661  -4.4523   4.7352  -3.1661   0.00    0.0
2054 462979.000   44.408908965    8.929330446    63.0509   5   6   5.6100   6.4878   9.9650  -4.4519   4.7357  -3.1659   0.00    0.0
2054 462980.000   44.408907423    8.929318977    70.1705   5   6   5.6094   6.4880   9.9638  -4.4515   4.7362  -3.1657   0.00    0.0
2054 462981.000   44.408896720    8.929325147    75.7423   5   6   5.6088   6.4883   9.9627  -4.4511   4.7367  -3.1655   0.00    0.0
2054 462982.000   44.408870536    8.929321183    81.6250   5   6   5.6082   6.4886   9.9616  -4.4507   4.7372  -3.1653   0.00    0.0
2054 462983.000   44.408865816    8.929316281    83.9293   5   6   5.6076   6.4888   9.9605  -4.4504   4.7377  -3.1651   0.00    0.0
2054 462993.000   44.408900583    8.929299409    98.5608   5   6   5.6015   6.4916   9.9494  -4.4465   4.7427  -3.1631   0.00    0.0
2054 462995.000   44.408869063    8.929185212    99.2933   5   5   5.7222   6.9610   9.9512  -4.1005   4.8174  -3.1102   0.00    0.0
2054 462996.000   44.408871043    8.929183913    99.7409   5   5   5.7216   6.9612   9.9501  -4.1000   4.8178  -3.1100   0.00    0.0
2054 462997.000   44.408870578    8.929183570   100.0751   5   5   5.7211   6.9614   9.9489  -4.0995   4.8182  -3.1099   0.00    0.0
2054 462998.000   44.408873096    8.929182644   101.1166   5   5   5.7206   6.9616   9.9478  -4.0990   4.8186  -3.1097   0.00    0.0
2054 462999.000   44.408868383    8.929185603   101.3538   5   5   5.7201   6.9618   9.9467  -4.0985   4.8190  -3.1096   0.00    0.0
2054 463000.000   44.408864588    8.929184821   101.6856   5   5   5.7196   6.9620   9.9456  -4.0980   4.8194  -3.1094   0.00    0.0
2054 463001.000   44.408864018    8.929185668   102.3090   5   5   5.7190   6.9622   9.9445  -4.0975   4.8198  -3.1093   0.00    0.0
2054 463002.000   44.408851200    8.929188505   101.2205   5   5   5.7185   6.9624   9.9434  -4.0970   4.8202  -3.1091   0.00    0.0
2054 463003.000   44.408844188    8.929192216   101.2246   5   5   5.7180   6.9626   9.9423  -4.0965   4.8206  -3.1089   0.00    0.0
2054 463004.000   44.408838109    8.929193519   101.0299   5   5   5.7175   6.9628   9.9411  -4.0960   4.8210  -3.1088   0.00    0.0
2054 463005.000   44.408830844    8.929195929   101.0071   5   5   5.7170   6.9630   9.9400  -4.0955   4.8214  -3.1086   0.00    0.0
2054 463006.000   44.408826600    8.929195646   101.2843   5   5   5.7164   6.9632   9.9389  -4.0950   4.8218  -3.1085   0.00    0.0
2054 463007.000   44.408830716    8.929194510   101.5989   5   5   5.7159   6.9634   9.9378  -4.0945   4.8222  -3.1083   0.00    0.0
2054 463008.000   44.408848628    8.929186372   103.6968   5   5   5.7154   6.9636   9.9367  -4.0940   4.8225  -3.1082   0.00    0.0
2054 463009.000   44.408853594    8.929184403   104.5661   5   5   5.7149   6.9638   9.9356  -4.0935   4.8229  -3.1080   0.00    0.0
2054 463010.000   44.408854847    8.929181914   104.9905   5   5   5.7144   6.9640   9.9344  -4.0931   4.8233  -3.1079   0.00    0.0
2054 463011.000   44.408870124    8.929174975   106.4968   5   5   5.7138   6.9642   9.9333  -4.0926   4.8237  -3.1077   0.00    0.0
2054 463012.000   44.408869443    8.929174594   106.3140   5   5   5.7133   6.9644   9.9322  -4.0921   4.8241  -3.1076   0.00    0.0
2054 463013.000   44.408866009    8.929178935   106.4084   5   5   5.7128   6.9646   9.9311  -4.0916   4.8245  -3.1074   0.00    0.0
2054 463014.000   44.408812530    8.929278772   114.0382   5   6   4.6393   5.3691   9.1621  -1.3969   2.5085   1.7622   0.00    0.0
2054 463015.000   44.408854993    8.929201839   109.5383   5   6   4.6392   5.3692   9.1613  -1.3964   2.5100   1.7608   0.00    0.0
2054 463016.000   44.408878519    8.929188356   111.1964   5   6   4.6391   5.3693   9.1605  -1.3959   2.5114   1.7594   0.00    0.0
2054 463017.000   44.408873787    8.929197267   112.4371   5   6   4.6390   5.3693   9.1597  -1.3953   2.5128   1.7580   0.00    0.0
2054 463018.000   44.408897609    8.929187426   114.9993   5   6   4.6389   5.3694   9.1588  -1.3948   2.5142   1.7566   0.00    0.0
2054 463019.000   44.408891197    8.929202544   117.1526   5   6   4.6388   5.3695   9.1580  -1.3942   2.5156   1.7552   0.00    0.0
2054 463020.000   44.408876542    8.929239760   120.8513   5   6   4.6387   5.3696   9.1572  -1.3937   2.5170   1.7538   0.00    0.0
2054 463021.000   44.408918504    8.929170483   117.0334   5   6   4.6386   5.3697   9.1564  -1.3931   2.5184   1.7524   0.00    0.0
2054 463022.000   44.408898321    8.929205767   119.4891   5   6   4.6384   5.3698   9.1556  -1.3926   2.5198   1.7510   0.00    0.0
2054 463023.000   44.408876509    8.929227645   119.4964   5   6   4.6383   5.3699   9.1548  -1.3920   2.5212   1.7496   0.00    0.0
2054 463024.000   44.408887040    8.929236168   122.2193   5   6   4.6382   5.3700   9.1539  -1.3915   2.5226   1.7481   0.00    0.0
2054 463025.000   44.408888539    8.929236442   122.3546   5   6   4.6381   5.3701   9.1531  -1.3909   2.5240   1.7467   0.00    0.0
2054 463026.000   44.408908344    8.929215141   123.2461   5   6   4.6380   5.3701   9.1523  -1.3904   2.5254   1.7453   0.00    0.0
2054 463027.000   44.408888549    8.929232753   123.2259   5   6   4.6379   5.3702   9.1515  -1.3898   2.5268   1.7439   0.00    0.0
2054 463028.000   44.408919664    8.929354834   126.0471   5   7   4.4991   4.7058   9.1444  -2.2007   2.3485   1.6294   0.00    0.0
2054 463029.000   44.408910254    8.929340841   125.6337   5   7   4.4989   4.7060   9.1436  -2.2005   2.3501   1.6280   0.00    0.0
2054 463030.000   44.408915284    8.929330824   125.9600   5   7   4.4987   4.7061   9.1428  -2.2004   2.3518   1.6265   0.00    0.0
2054 463031.000   44.408924385    8.929298787   122.5346   5   7   4.4985   4.7063   9.1420  -2.2002   2.3535   1.6251   0.00    0.0
2054 463032.000   44.408906520    8.929312557   123.9614   5   7   4.4983   4.7065   9.1412  -2.2000   2.3552   1.6237   0.00    0.0
2054 463033.000   44.408901512    8.929325846   125.3515   5   7   4.4981   4.7066   9.1404  -2.1998   2.3569   1.6223   0.00    0.0
2054 463034.000   44.408891981    8.929320125   125.4280   5   7   4.4979   4.7068   9.1396  -2.1996   2.3585   1.6208   0.00    0.0
2054 463035.000   44.408911789    8.929296121   125.2872   5   7   4.4977   4.7069   9.1388  -2.1994   2.3602   1.6194   0.00    0.0
2054 463036.000   44.408923342    8.929276024   125.1246   5   7   4.4975   4.7071   9.1380  -2.1993   2.3619   1.6179   0.00    0.0
2054 463037.000   44.408894979    8.929304116   125.0853   5   7   4.4973   4.7073   9.1371  -2.1991   2.3635   1.6165   0.00    0.0
2054 463038.000   44.408881953    8.929321511   126.1566   5   7   4.4971   4.7074   9.1363  -2.1989   2.3652   1.6151   0.00    0.0
2054 463039.000   44.408872701    8.929314112   124.2805   5   7   4.4969   4.7076   9.1355  -2.1987   2.3669   1.6137   0.00    0.0
2054 463040.000   44.408866511    8.929313432   124.2583   5   7   4.4967   4.7077   9.1347  -2.1985   2.3685   1.6122   0.00    0.0
2054 463041.000   44.408905590    8.929242564   120.4119   5   6   5.5727   6.5050   9.8964  -4.4282   4.7662  -3.1535   0.00    0.0
2054 463042.000   44.408915022    8.929237778   122.2677   5   6   5.5721   6.5052   9.8953  -4.4278   4.7667  -3.1533   0.00    0.0
2054 463043.000   44.408904338    8.929242155   121.8306   5   6   5.5715   6.5055   9.8942  -4.4274   4.7672  -3.1531   0.00    0.0
2054 463044.000   44.408890987    8.929240819   124.5233   5   6   5.5709   6.5058   9.8931  -4.4271   4.7677  -3.1528   0.00    0.0
2054 463045.000   44.408848917    8.929250434   125.2460   5   6   5.5703   6.5061   9.8920  -4.4267   4.7682  -3.1526   0.00    0.0
2054 463046.000   44.408813699    8.929251499   131.5782   5   6   5.5697   6.5064   9.8909  -4.4263   4.7686  -3.1524   0.00    0.0
2054 463073.000   44.408509905    8.929425759   116.3229   5   6   5.5536   6.5140   9.8612  -4.4161   4.7814  -3.1468   0.00    0.0
2054 463074.000   44.408506362    8.929429879   114.0467   5   6   5.5531   6.5143   9.8601  -4.4157   4.7819  -3.1466   0.00    0.0
2054 463075.000   44.408529244    8.929416251   113.3278   5   6   5.5525   6.5146   9.8590  -4.4153   4.7824  -3.1464   0.00    0.0
2054 463076.000   44.408535894    8.929414524   111.7371   5   6   5.5519   6.5149   9.8579  -4.4150   4.7828  -3.1462   0.00    0.0
2054 463077.000   44.408546851    8.929415112   108.1304   5   6   5.5513   6.5152   9.8568  -4.4146   4.7833  -3.1460   0.00    0.0
2054 463078.000   44.408555836    8.929408163   108.1327   5   6   5.5507   6.5154   9.8557  -4.4142   4.7838  -3.1458   0.00    0.0
2054 463079.000   44.408573939    8.929403898   108.0580   5   6   5.5501   6.5157   9.8546  -4.4138   4.7843  -3.1456   0.00    0.0
2054 463080.000   44.408579490    8.929402433   108.0534   5   6   5.5495   6.5160   9.8535  -4.4135   4.7847  -3.1453   0.00    0.0
2054 463081.000   44.408590085    8.929396324   108.2069   5   6   5.5489   6.5163   9.8524  -4.4131   4.7852  -3.1451   0.00    0.0
2054 463082.000   44.408592394    8.929390230   107.2979   5   6   5.5483   6.5166   9.8513  -4.4127   4.7857  -3.1449   0.00    0.0
2054 463083.000   44.408608424    8.929378542   108.2215   5   6   5.5477   6.5169   9.8502  -4.4123   4.7861  -3.1447   0.00    0.0
2054 463084.000   44.408626612    8.929347876   107.0683   5   6   5.5472   6.5172   9.8491  -4.4120   4.7866  -3.1445   0.00    0.0
2054 463085.000   44.408631452    8.929362973   108.1418   5   6   5.5466   6.5175   9.8480  -4.4116   4.7871  -3.1443   0.00    0.0
2054 463086.000   44.408632237    8.929406981   109.5495   5   6   5.5460   6.5177   9.8469  -4.4112   4.7875  -3.1441   0.00    0.0
2054 463087.000   44.408640743    8.929406932   109.7912   5   6   5.5454   6.5180   9.8458  -4.4108   4.7880  -3.1439   0.00    0.0
2054 463088.000   44.408629711    8.929396310   107.3894   5   6   5.5448   6.5183   9.8447  -4.4105   4.7884  -3.1437   0.00    0.0
2054 463089.000   44.408642431    8.929391800   107.0903   5   6   5.5442   6.5186   9.8436  -4.4101   4.7889  -3.1435   0.00    0.0
2054 463090.000   44.408646163    8.929407625   106.4452   5   6   5.5436   6.5189   9.8425  -4.4097   4.7894  -3.1433   0.00    0.0
2054 463091.000   44.408655135    8.929404015   106.6933   5   6   5.5430   6.5192   9.8414  -4.4093   4.7898  -3.1431   0.00    0.0
2054 463093.000   44.408629701    8.929292815   105.4957   5   5   5.6720   6.9813   9.8423  -4.0522   4.8546  -3.0949   0.00    0.0
2054 463094.000   44.408636561    8.929291874   105.1350   5   5   5.6715   6.9815   9.8412  -4.0517   4.8549  -3.0947   0.00    0.0
2054 463095.000   44.408634586    8.929291350   103.9761   5   5   5.6710   6.9817   9.8401  -4.0512   4.8553  -3.0946   0.00    0.0
2054 463096.000   44.408642285    8.929284807   103.7874   5   5   5.6705   6.9819   9.8390  -4.0507   4.8557  -3.0944   0.00    0.0
2054 463097.000   44.408636080    8.929285119   102.4460   5   5   5.6700   6.9821   9.8379  -4.0502   4.8560  -3.0942   0.00    0.0
2054 463098.000   44.408638110    8.929287701   101.9171   5   5   5.6695   6.9823   9.8368  -4.0497   4.8564  -3.0941   0.00    0.0
2054 463099.000   44.408641677    8.929283677   101.4349   5   5   5.6690   6.9826   9.8357  -4.0493   4.8567  -3.0939   0.00    0.0
2054 463100.000   44.408646492    8.929284173   101.1081   5   5   5.6685   6.9828   9.8346  -4.0488   4.8571  -3.0938   0.00    0.0
2054 463101.000   44.408663910    8.929257551   100.8028   5   5   5.6680   6.9830   9.8335  -4.0483   4.8575  -3.0936   0.00    0.0
2054 463102.000   44.408668061    8.929245366   100.1831   5   5   5.6675   6.9832   9.8324  -4.0478   4.8578  -3.0934   0.00    0.0
2054 463103.000   44.408686316    8.929195278    99.0565   5   5   5.6670   6.9834   9.8313  -4.0473   4.8582  -3.0933   0.00    0.0
2054 463104.000   44.408683040    8.929197285    98.2517   5   5   5.6665   6.9836   9.8301  -4.0468   4.8585  -3.0931   0.00    0.0
2054 463105.000   44.408680197    8.929209228    98.3781   5   5   5.6660   6.9839   9.8290  -4.0463   4.8589  -3.0930   0.00    0.0
2054 463106.000   44.408688770    8.929190801    98.3674   5   5   5.6655   6.9841   9.8279  -4.0459   4.8593  -3.0928   0.00    0.0
2054 463107.000   44.408699525    8.929170357    97.9915   5   5   5.6650   6.9843   9.8268  -4.0454   4.8596  -3.0926   0.00    0.0
2054 463108.000   44.408710716    8.929167310    98.8250   5   5   5.6645   6.9845   9.8257  -4.0449   4.8600  -3.0925   0.00    0.0
2054 463109.000   44.408704967    8.929162605    97.6826   5   5   5.6640   6.9847   9.8246  -4.0444   4.8603  -3.0923   0.00    0.0
2054 463110.000   44.408702955    8.929153512    96.1224   5   5   5.6635   6.9849   9.8235  -4.0439   4.8607  -3.0922   0.00    0.0
2054 463111.000   44.408705103    8.929135727    95.1201   5   5   5.6630   6.9852   9.8224  -4.0434   4.8610  -3.0920   0.00    0.0
2054 463112.000   44.408709807    8.929151619    96.3147   5   5   5.6625   6.9854   9.8213  -4.0429   4.8614  -3.0918   0.00    0.0
2054 463113.000   44.408720319    8.929153978    97.6660   5   5   5.6620   6.9856   9.8202  -4.0425   4.8618  -3.0917   0.00    0.0
2054 463114.000   44.408725353    8.929146164    97.8528   5   5   5.6615   6.9858   9.8191  -4.0420   4.8621  -3.0915   0.00    0.0
2054 463115.000   44.408727478    8.929131645    97.4040   5   5   5.6610   6.9860   9.8180  -4.0415   4.8625  -3.0914   0.00    0.0
2054 463116.000   44.408722329    8.929161330    98.7347   5   5   5.6605   6.9862   9.8169  -4.0410   4.8628  -3.0912   0.00    0.0
2054 463117.000   44.408723769    8.929156002    98.7999   5   5   5.6600   6.9865   9.8158  -4.0405   4.8632  -3.0910   0.00    0.0
2054 463118.000   44.408719462    8.929162496    98.6001   5   5   5.6595   6.9867   9.8147  -4.0400   4.8635  -3.0909   0.00    0.0
2054 463119.000   44.408717463    8.929165633    98.5847   5   5   5.6590   6.9869   9.8136  -4.0396   4.8639  -3.0907   0.00    0.0
2054 463120.000   44.408712806    8.929187024    99.4571   5   5   5.6585   6.9871   9.8125  -4.0391   4.8642  -3.0906   0.00    0.0
2054 463121.000   44.408716888    8.929205865   101.4584   5   5   5.6580   6.9873   9.8114  -4.0386   4.8646  -3.0904   0.00    0.0
2054 463122.000   44.408706261    8.929219642   100.6591   5   5   5.6575   6.9875   9.8103  -4.0381   4.8649  -3.0902   0.00    0.0
2054 463123.000   44.408701408    8.929229811   100.5003   5   5   5.6570   6.9878   9.8092  -4.0376   4.8653  -3.0901   0.00    0.0
2054 463124.000   44.408702115    8.929241081   101.3091   5   5   5.6565   6.9880   9.8081  -4.0371   4.8656  -3.0899   0.00    0.0
2054 463125.000   44.408695072    8.929232807   100.4333   5   5   5.6560   6.9882   9.8070  -4.0367   4.8660  -3.0898   0.00    0.0
2054 463126.000   44.408690043    8.929232676    99.8115   5   5   5.6555   6.9884   9.8059  -4.0362   4.8663  -3.0896   0.00    0.0
2054 463127.000   44.408684898    8.929232747    99.7845   5   5   5.6550   6.9886   9.8048  -4.0357   4.8667  -3.0894   0.00    0.0
2054 463128.000   44.408674867    8.929275998   101.4135   5   5   5.6545   6.9889   9.8037  -4.0352   4.8670  -3.0893   0.00    0.0
2054 463129.000   44.408674528    8.929316583   103.6244   5   5   5.6540   6.9891   9.8026  -4.0347   4.8674  -3.0891   0.00    0.0
2054 463130.000   44.408685470    8.929285362   103.5524   5   5   5.6535   6.9893   9.8015  -4.0342   4.8677  -3.0890   0.00    0.0
2054 463131.000   44.408689830    8.929264978   102.9621   5   5   5.6530   6.9895   9.8004  -4.0338   4.8681  -3.0888   0.00    0.0
2054 463132.000   44.408692419    8.929280293   104.3377   5   5   5.6525   6.9897   9.7993  -4.0333   4.8684  -3.0886   0.00    0.0
2054 463133.000   44.408703217    8.929237321   103.8272   5   5   5.6520   6.9900   9.7982  -4.0328   4.8688  -3.0885   0.00    0.0
2054 463134.000   44.408696908    8.929259963   104.5463   5   5   5.6515   6.9902   9.7971  -4.0323   4.8691  -3.0883   0.00    0.0
2054 463135.000   44.408702756    8.929276856   107.1733   5   5   5.6511   6.9904   9.7960  -4.0318   4.8695  -3.0881   0.00    0.0
2054 463136.000   44.408684159    8.929282388   105.6572   5   5   5.6506   6.9906   9.7949  -4.0313   4.8698  -3.0880   0.00    0.0
2054 463137.000   44.408656498    8.929365814   108.0055   5   5   5.6501   6.9908   9.7938  -4.0309   4.8702  -3.0878   0.00    0.0
2054 463138.000   44.408643181    8.929378935   107.3888   5   5   5.6496   6.9911   9.7927  -4.0304   4.8705  -3.0877   0.00    0.0
2054 463139.000   44.408653068    8.929336599   106.1365   5   5   5.6491   6.9913   9.7916  -4.0299   4.8709  -3.0875   0.00    0.0
2054 463140.000   44.408636824    8.929368402   106.2965   5   5   5.6486   6.9915   9.7905  -4.0294   4.8712  -3.0873   0.00    0.0
2054 463141.000   44.408666458    8.929356350   109.8283   5   5   5.6481   6.9917   9.7893  -4.0289   4.8716  -3.0872   0.00    0.0
2054 463142.000   44.408654851    8.929359989   108.8870   5   5   5.6476   6.9919   9.7882  -4.0285   4.8719  -3.0870   0.00    0.0
2054 463143.000   44.408649692    8.929364699   108.7416   5   5   5.6471   6.9922   9.7871  -4.0280   4.8723  -3.0868   0.00    0.0
2054 463144.000   44.408654224    8.929367474   109.8191   5   5   5.6466   6.9924   9.7860  -4.0275   4.8726  -3.0867   0.00    0.0
2054 463145.000   44.408627864    8.929384287   108.3217   5   5   5.6461   6.9926   9.7849  -4.0270   4.8730  -3.0865   0.00    0.0
2054 463146.000   44.408651923    8.929378697   110.8715   5   5   5.6456   6.9928   9.7838  -4.0265   4.8733  -3.0864   0.00    0.0
2054 463147.000   44.408669649    8.929373676   112.9640   5   5   5.6451   6.9930   9.7827  -4.0261   4.8736  -3.0862   0.00    0.0
2054 463148.000   44.408650585    8.929386793   111.4987   5   5   5.6446   6.9933   9.7816  -4.0256   4.8740  -3.0860   0.00    0.0
2054 463149.000   44.408641809    8.929397234   111.0834   5   5   5.6441   6.9935   9.7805  -4.0251   4.8743  -3.0859   0.00    0.0
2054 463150.000   44.408648331    8.929398978   111.5389   5   5   5.6436   6.9937   9.7794  -4.0246   4.8747  -3.0857   0.00    0.0
2054 463151.000   44.408633596    8.929491520   116.3229   5   6   5.5081   6.5367   9.7757  -4.3870   4.8170  -3.1302   0.00    0.0
2054 463152.000   44.408663106    8.929475579   117.0860   5   6   5.5075   6.5370   9.7746  -4.3866   4.8174  -3.1300   0.00    0.0
2054 463153.000   44.408679118    8.929460886   118.6997   5   6   5.5070   6.5373   9.7735  -4.3863   4.8179  -3.1298   0.00    0.0
2054 463154.000   44.408701638    8.929432101   115.5296   5   6   5.5064   6.5376   9.7725  -4.3859   4.8183  -3.1296   0.00    0.0
2054 463155.000   44.408653438    8.929488681   112.2385   5   6   5.5058   6.5379   9.7714  -4.3855   4.8187  -3.1293   0.00    0.0
2054 463156.000   44.408658546    8.929466049   112.9312   5   6   5.5052   6.5382   9.7703  -4.3852   4.8192  -3.1291   0.00    0.0
2054 463157.000   44.408652049    8.929461497   113.8111   5   6   5.5047   6.5385   9.7692  -4.3848   4.8196  -3.1289   0.00    0.0
2054 463158.000   44.408650238    8.929468463   113.7039   5   6   5.5041   6.5388   9.7681  -4.3844   4.8201  -3.1287   0.00    0.0
2054 463159.000   44.408671141    8.929460151   115.1887   5   6   5.5035   6.5391   9.7670  -4.3841   4.8205  -3.1285   0.00    0.0
2054 463160.000   44.408657763    8.929463750   115.4286   5   6   5.5029   6.5393   9.7659  -4.3837   4.8209  -3.1282   0.00    0.0
2054 463161.000   44.408679591    8.929458819   112.9767   5   6   5.5024   6.5396   9.7648  -4.3833   4.8214  -3.1280   0.00    0.0
2054 463162.000   44.408676335    8.929464466   109.8621   5   6   5.5018   6.5399   9.7637  -4.3830   4.8218  -3.1278   0.00    0.0
2054 463163.000   44.408653604    8.929471960   109.0101   5   6   5.5012   6.5402   9.7626  -4.3826   4.8223  -3.1276   0.00    0.0
2054 463164.000   44.408660054    8.929464538   112.5045   5   6   5.5006   6.5405   9.7616  -4.3822   4.8227  -3.1274   0.00    0.0
2054 463165.000   44.408723906    8.929463571    98.7823   5   5   6.9725   6.5421  12.6761  -4.3186   4.7142  -6.6664   0.00    0.0
2054 463166.000   44.408708326    8.929472663    97.3661   5   5   6.9717   6.5424  12.6744  -4.3183   4.7149  -6.6654   0.00    0.0
2054 463167.000   44.408699322    8.929472000    96.0045   5   5   6.9708   6.5427  12.6727  -4.3181   4.7156  -6.6645   0.00    0.0
2054 463168.000   44.408613995    8.929457821   118.0355   5   6   5.4983   6.5417   9.7572  -4.3807   4.8245  -3.1265   0.00    0.0
2054 463169.000   44.408601623    8.929457906   120.1266   5   6   5.4978   6.5420   9.7561  -4.3804   4.8249  -3.1262   0.00    0.0
2054 463170.000   44.408623775    8.929452908   122.1005   5   6   5.4972   6.5423   9.7550  -4.3800   4.8253  -3.1260   0.00    0.0
2054 463171.000   44.408623311    8.929447627   120.4986   5   6   5.4966   6.5426   9.7539  -4.3796   4.8258  -3.1258   0.00    0.0
2054 463172.000   44.408624992    8.929427198   121.5639   5   6   5.4960   6.5429   9.7528  -4.3793   4.8262  -3.1256   0.00    0.0
2054 463173.000   44.408621369    8.929432333   122.4965   5   6   5.4955   6.5432   9.7517  -4.3789   4.8266  -3.1254   0.00    0.0
2054 463175.000   44.408603439    8.929428133   117.1466   5   6   5.4943   6.5438   9.7496  -4.3782   4.8275  -3.1249   0.00    0.0
2054 463176.000   44.408580256    8.929433917   114.2937   5   6   5.4938   6.5441   9.7485  -4.3778   4.8279  -3.1247   0.00    0.0
2054 463177.000   44.408623654    8.929415232   117.1632   5   6   5.4932   6.5444   9.7474  -4.3774   4.8284  -3.1245   0.00    0.0
2054 463178.000   44.408635528    8.929413170   115.7583   5   6   5.4926   6.5447   9.7463  -4.3771   4.8288  -3.1243   0.00    0.0
2054 463179.000   44.408612122    8.929412362   117.8524   5   6   5.4920   6.5450   9.7452  -4.3767   4.8292  -3.1240   0.00    0.0
2054 463180.000   44.408608395    8.929409922   118.0139   5   6   5.4915   6.5453   9.7441  -4.3763   4.8297  -3.1238   0.00    0.0
2054 463181.000   44.408625779    8.929408699   115.6652   5   6   5.4909   6.5456   9.7430  -4.3760   4.8301  -3.1236   0.00    0.0
2054 463197.000   44.408565285    8.929481328   119.9918   5   6   5.4818   6.5504   9.7256  -4.3701   4.8370  -3.1200   0.00    0.0
2054 463198.000   44.408553171    8.929469031   122.1213   5   6   5.4812   6.5507   9.7246  -4.3698   4.8374  -3.1198   0.00    0.0
2054 463201.000   44.408540990    8.929525406   131.8894   5   6   5.4795   6.5516   9.7213  -4.3687   4.8387  -3.1192   0.00    0.0
2054 463202.000   44.408535032    8.929523445   131.0664   5   6   5.4789   6.5519   9.7202  -4.3683   4.8391  -3.1189   0.00    0.0
2054 463203.000   44.408528137    8.929536695   131.8212   5   6   5.4784   6.5522   9.7191  -4.3679   4.8395  -3.1187   0.00    0.0
2054 463204.000   44.408509703    8.929573345   133.5529   5   6   5.4778   6.5525   9.7180  -4.3676   4.8400  -3.1185   0.00    0.0
2054 463205.000   44.408515209    8.929540067   131.4421   5   6   5.4772   6.5528   9.7169  -4.3672   4.8404  -3.1183   0.00    0.0
2054 463206.000   44.408480610    8.929616833   134.1099   5   6   5.4767   6.5531   9.7159  -4.3668   4.8408  -3.1180   0.00    0.0
2054 463207.000   44.408471366    8.929644145   138.1599   5   6   5.4761   6.5534   9.7148  -4.3665   4.8412  -3.1178   0.00    0.0
2054 463208.000   44.408463954    8.929673489   140.9849   5   6   5.4755   6.5537   9.7137  -4.3661   4.8416  -3.1176   0.00    0.0
2054 463209.000   44.408474597    8.929637282   142.0489   5   6   5.4750   6.5540   9.7126  -4.3657   4.8421  -3.1174   0.00    0.0
2054 463210.000   44.408460134    8.929685627   145.4591   5   6   5.4744   6.5543   9.7115  -4.3654   4.8425  -3.1171   0.00    0.0
2054 463211.000   44.408454738    8.929703806   145.3654   5   6   5.4738   6.5546   9.7104  -4.3650   4.8429  -3.1169   0.00    0.0
2054 463212.000   44.408466353    8.929664407   142.9608   5   6   5.4733   6.5549   9.7094  -4.3646   4.8433  -3.1167   0.00    0.0
2054 463213.000   44.408474244    8.929671318   139.1170   5   6   5.4727   6.5552   9.7083  -4.3643   4.8438  -3.1165   0.00    0.0
2054 463214.000   44.408479231    8.929678683   138.9682   5   6   5.4721   6.5555   9.7072  -4.3639   4.8442  -3.1162   0.00    0.0
2054 463215.000   44.408489637    8.929643936   137.5182   5   6   5.4716   6.5558   9.7061  -4.3636   4.8446  -3.1160   0.00    0.0
2054 463216.000   44.408500565    8.929603598   130.6234   5   6   5.4710   6.5562   9.7050  -4.3632   4.8450  -3.1158   0.00    0.0
2054 463217.0