% (lat/lon/height=WGS84/ellipsoidal,Q=1:fix,2:float,3:sbas,4:dgps,5:single,6:ppp,ns=# of satellites)
%  GPST          latitude(deg) longitude(deg)  height(m)   Q  ns   sdn(m)   sde(m)   sdu(m)  sdne(m)  sdeu(m)  sdun(m) age(s)  ratio
2046 141764.000   44.408656312    8.929529814    83.6843   5   5  10.8181   6.8846  11.2883  -6.6820  -4.3214  -3.0462   0.00    0.0
2046 141765.000   44.408673399    8.929523409    89.4815   5   5  10.8183   6.8849  11.2870  -6.6826  -4.3201  -3.0490   0.00    0.0
2046 141766.000   44.408656889    8.929514380    86.1261   5   5  10.8186   6.8852  11.2857  -6.6832  -4.3188  -3.0519   0.00    0.0
2046 141767.000   44.408671999    8.929528813    94.5479   5   5  10.8188   6.8855  11.2844  -6.6838  -4.3174  -3.0547   0.00    0.0
2046 141768.000   44.408675085    8.929500962    91.8709   5   5  10.8191   6.8858  11.2831  -6.6844  -4.3161  -3.0575   0.00    0.0
2046 141769.000   44.408649453    8.929505608    93.1854   5   5  10.8193   6.8862  11.2818  -6.6850  -4.3148  -3.0604   0.00    0.0
2046 141770.000   44.408651693    8.929467045    93.7777   5   5  10.8196   6.8865  11.2804  -6.6856  -4.3135  -3.0632   0.00    0.0
2046 141771.000   44.408650133    8.929499507    94.7289   5   5  10.8198   6.8868  11.2791  -6.6862  -4.3122  -3.0660   0.00    0.0
2046 141772.000   44.408657376    8.929490414    94.5890   5   5  10.8200   6.8871  11.2778  -6.6868  -4.3108  -3.0688   0.00    0.0
2046 141773.000   44.408676465    8.929488155    91.6833   5   5  10.8203   6.8875  11.2765  -6.6874  -4.3095  -3.0717   0.00    0.0
2046 141774.000   44.408675812    8.929495779    91.1746   5   5  10.8205   6.8878  11.2752  -6.6880  -4.3082  -3.0745   0.00    0.0
2046 141775.000   44.408644500    8.929474870    98.0130   5   5  10.8207   6.8881  11.2739  -6.6886  -4.3069  -3.0773   0.00    0.0
2046 141776.000   44.408637789    8.929492924    98.2817   5   5  10.8210   6.8884  11.2726  -6.6892  -4.3056  -3.0801   0.00    0.0
2046 141777.000   44.408650339    8.929508657    95.0866   5   5  10.8212   6.8887  11.2713  -6.6898  -4.3043  -3.0829   0.00    0.0
2046 141778.000   44.408632011    8.929498636    98.9321   5   5  10.8214   6.8891  11.2700  -6.6904  -4.3029  -3.0857   0.00    0.0
2046 141779.000   44.408636318    8.929510508    97.4816   5   5  10.8217   6.8894  11.2687  -6.6910  -4.3016  -3.0884   0.00    0.0
2046 141780.000   44.408644129    8.929500566    97.0408   5   5  10.8219   6.8897  11.2673  -6.6916  -4.3003  -3.0912   0.00    0.0
2046 141781.000   44.408645954    8.929528541    95.2205   5   5  10.8221   6.8900  11.2660  -6.6922  -4.2990  -3.0940   0.00    0.0
2046 141782.000   44.408643944    8.929532804    94.5767   5   5  10.8224   6.8904  11.2647  -6.6927  -4.2977  -3.0968   0.00    0.0
2046 141783.000   44.408637512    8.929514903    96.2916   5   5  10.8226   6.8907  11.2634  -6.6933  -4.2963  -3.0995   0.00    0.0
2046 141784.000   44.408647241    8.929519761    94.3557   5   5  10.8228   6.8910  11.2621  -6.6939  -4.2950  -3.1023   0.00    0.0
2046 141785.000   44.408649396    8.929513326    94.6307   5   5  10.8231   6.8913  11.2608  -6.6945  -4.2937  -3.1050   0.00    0.0
2046 141786.000   44.408640776    8.929517902    95.8108   5   5  10.8233   6.8916  11.2595  -6.6951  -4.2924  -3.1078   0.00    0.0
2046 141787.000   44.408637319    8.929513091    96.5247   5   5  10.8235   6.8920  11.2582  -6.6957  -4.2911  -3.1105   0.00    0.0
2046 141788.000   44.408641293    8.929506611    96.2082   5   5  10.8237   6.8923  11.2569  -6.6963  -4.2898  -3.1133   0.00    0.0
2046 141789.000   44.408632894    8.929514234    97.8467   5   5  10.8240   6.8926  11.2556  -6.6969  -4.2884  -3.1160   0.00    0.0
2046 141790.000   44.408633142    8.929516147    97.5472   5   5  10.8242   6.8929  11.2543  -6.6975  -4.2871  -3.1187   0.00    0.0
2046 141791.000   44.408620245    8.929528236    98.8841   5   5  10.8244   6.8932  11.2530  -6.6981  -4.2858  -3.1215   0.00    0.0
2046 141792.000   44.408617685    8.929535308    98.9254   5   5  10.8246   6.8936  11.2517  -6.6986  -4.2845  -3.1242   0.00    0.0
2046 141793.000   44.408615438    8.929538905    99.4046   5   5  10.8248   6.8939  11.2503  -6.6992  -4.2832  -3.1269   0.00    0.0
2046 141794.000   44.408622147    8.929533405    98.9728   5   5  10.8251   6.8942  11.2490  -6.6998  -4.2819  -3.1296   0.00    0.0
2046 141795.000   44.408616814    8.929543023    99.3144   5   5  10.8253   6.8945  11.2477  -6.7004  -4.2805  -3.1323   0.00    0.0
2046 141796.000   44.408610699    8.929548651   100.0823   5   5  10.8255   6.8948  11.2464  -6.7010  -4.2792  -3.1350   0.00    0.0
2046 141797.000   44.408602357    8.929554281   100.4916   5   5  10.8257   6.8951  11.2451  -6.7016  -4.2779  -3.1377   0.00    0.0
2046 141798.000   44.408600110    8.929552329   100.4188   5   5  10.8259   6.8955  11.2438  -6.7022  -4.2766  -3.1404   0.00    0.0
2046 141799.000   44.408646370    8.929525102   106.3033   5   7   9.4534   4.2904  10.4389  -4.2829  -2.5246  -5.2397   0.00    0.0
2046 141800.000   44.408638186    8.929533960   108.9912   5   7   9.4531   4.2903  10.4379  -4.2830  -2.5231  -5.2411   0.00    0.0
2046 141801.000   44.408640015    8.929535998   108.6724   5   7   9.4528   4.2903  10.4369  -4.2830  -2.5217  -5.2424   0.00    0.0
2046 141802.000   44.408641580    8.929536682   108.2067   5   7   9.4525   4.2902  10.4359  -4.2831  -2.5203  -5.2437   0.00    0.0
2046 141803.000   44.408645439    8.929533503   105.9580   5   7   9.4522   4.2901  10.4349  -4.2832  -2.5189  -5.2451   0.00    0.0
2046 141804.000   44.408641996    8.929536335   105.7963   5   7   9.4519   4.2901  10.4339  -4.2832  -2.5175  -5.2464   0.00    0.0
2046 141805.000   44.408640400    8.929539939   106.7150   5   7   9.4516   4.2900  10.4329  -4.2833  -2.5160  -5.2478   0.00    0.0
2046 141806.000   44.408639862    8.929539077   106.0395   5   7   9.4513   4.2899  10.4319  -4.2833  -2.5146  -5.2491   0.00    0.0
2046 141807.000   44.408637497    8.929548900   106.8895   5   7   9.4510   4.2899  10.4308  -4.2834  -2.5132  -5.2505   0.00    0.0
2046 141808.000   44.408629657    8.929543272   106.9369   5   7   9.4507   4.2898  10.4298  -4.2834  -2.5118  -5.2518   0.00    0.0
2046 141809.000   44.408628919    8.929549892   108.8757   5   7   9.4504   4.2897  10.4288  -4.2835  -2.5104  -5.2531   0.00    0.0
2046 141810.000   44.408625460    8.929544493   108.9410   5   7   9.4501   4.2897  10.4278  -4.2836  -2.5089  -5.2545   0.00    0.0
2046 141811.000   44.408621902    8.929546948   109.8454   5   7   9.4498   4.2896  10.4268  -4.2836  -2.5075  -5.2558   0.00    0.0
2046 141812.000   44.408618119    8.929545489   110.5748   5   7   9.4495   4.2896  10.4258  -4.2837  -2.5061  -5.2571   0.00    0.0
2046 141813.000   44.408611963    8.929549361   112.0986   5   7   9.4492   4.2895  10.4248  -4.2837  -2.5047  -5.2584   0.00    0.0
2046 141814.000   44.408615933    8.929548102   111.7087   5   7   9.4489   4.2894  10.4238  -4.2838  -2.5033  -5.2597   0.00    0.0
2046 141815.000   44.408618885    8.929546573   110.5771   5   7   9.4486   4.2894  10.4228  -4.2838  -2.5018  -5.2611   0.00    0.0
2046 141816.000   44.408671849    8.929512571    92.5878   5   6   9.6285   4.3848  11.9340  -4.4765  -0.9800  -6.2026   0.00    0.0
2046 141817.000   44.408673457    8.929513299    92.7285   5   6   9.6285   4.3849  11.9328  -4.4769  -0.9743  -6.2045   0.00    0.0
2046 141818.000   44.408678460    8.929504095    91.3140   5   6   9.6286   4.3850  11.9316  -4.4773  -0.9686  -6.2064   0.00    0.0
2046 141819.000   44.408678008    8.929497476    90.9840   5   6   9.6287   4.3851  11.9304  -4.4778  -0.9628  -6.2083   0.00    0.0
2046 141820.000   44.408678356    8.929494733    90.9174   5   6   9.6287   4.3852  11.9292  -4.4782  -0.9570  -6.2102   0.00    0.0
2046 141821.000   44.408678561    8.929495895    91.1092   5   6   9.6288   4.3853  11.9280  -4.4786  -0.9512  -6.2121   0.00    0.0
2046 141822.000   44.408680933    8.929495098    91.2480   5   6   9.6289   4.3854  11.9268  -4.4790  -0.9453  -6.2140   0.00    0.0
2046 141823.000   44.408681189    8.929500647    92.2887   5   6   9.6289   4.3855  11.9256  -4.4794  -0.9394  -6.2160   0.00    0.0
2046 141824.000   44.408682192    8.929501004    92.0839   5   6   9.6290   4.3856  11.9244  -4.4798  -0.9335  -6.2179   0.00    0.0
2046 141825.000   44.408685709    8.929496587    91.1967   5   6   9.6291   4.3857  11.9232  -4.4802  -0.9275  -6.2198   0.00    0.0
2046 141826.000   44.408681547    8.929496509    91.0324   5   6   9.6291   4.3859  11.9220  -4.4807  -0.9215  -6.2216   0.00    0.0
2046 141832.000   44.408694271    8.929478003    90.0483   5   6   9.6295   4.3865  11.9149  -4.4831  -0.8848  -6.2330   0.00    0.0
2046 141833.000   44.408695319    8.929485750    91.3214   5   6   9.6296   4.3866  11.9137  -4.4836  -0.8785  -6.2348   0.00    0.0
2046 141834.000   44.408692713    8.929475157    90.2938   5   6   9.6297   4.3867  11.9125  -4.4840  -0.8722  -6.2367   0.00    0.0
2046 141835.000   44.408691011    8.929478146    90.6184   5   6   9.6297   4.3868  11.9113  -4.4844  -0.8658  -6.2386   0.00    0.0
2046 141836.000   44.408690485    8.929489087    91.9536   5   6   9.6298   4.3869  11.9101  -4.4848  -0.8595  -6.2405   0.00    0.0
2046 141837.000   44.408691317    8.929486753    91.8493   5   6   9.6298   4.3870  11.9089  -4.4852  -0.8530  -6.2423   0.00    0.0
2046 141838.000   44.408693489    8.929483318    91.7006   5   6   9.6299   4.3871  11.9078  -4.4856  -0.8465  -6.2442   0.00    0.0
2046 141839.000   44.408693114    8.929477702    90.8648   5   6   9.6300   4.3872  11.9066  -4.4860  -0.8400  -6.2460   0.00    0.0
