% (lat/lon/height=WGS84/ellipsoidal,Q=1:fix,2:float,3:sbas,4:dgps,5:single,6:ppp,ns=# of satellites)
%  GPST          latitude(deg) longitude(deg)  height(m)   Q  ns   sdn(m)   sde(m)   sdu(m)  sdne(m)  sdeu(m)  sdun(m) age(s)  ratio
2046 140589.000   44.408654072    8.929460735    60.0519   5   6   9.5313   4.7389  12.3494  -4.1238  -3.7236   1.9085   0.00    0.0
2046 140590.000   44.408655522    8.929456918    61.0523   5   6   9.5313   4.7388  12.3476  -4.1239  -3.7218   1.8991   0.00    0.0
2046 140591.000   44.408656422    8.929452960    61.4046   5   6   9.5314   4.7386  12.3458  -4.1240  -3.7201   1.8896   0.00    0.0
2046 140592.000   44.408673510    8.929435529    62.4018   5   6   9.5314   4.7385  12.3440  -4.1241  -3.7183   1.8801   0.00    0.0
2046 140593.000   44.408642099    8.929459639    62.2643   5   6   9.5314   4.7384  12.3422  -4.1241  -3.7166   1.8706   0.00    0.0
2046 140594.000   44.408672129    8.929434851    63.2703   5   6   9.5315   4.7383  12.3404  -4.1242  -3.7148   1.8610   0.00    0.0
2046 140595.000   44.408657773    8.929444690    63.4121   5   6   9.5315   4.7382  12.3386  -4.1243  -3.7131   1.8514   0.00    0.0
2046 140596.000   44.408669691    8.929434655    63.8530   5   6   9.5315   4.7381  12.3369  -4.1244  -3.7113   1.8417   0.00    0.0
2046 140597.000   44.408633596    8.929457953    64.2024   5   6   9.5316   4.7380  12.3351  -4.1245  -3.7096   1.8320   0.00    0.0
2046 140598.000   44.408628786    8.929464720    64.1887   5   6   9.5316   4.7379  12.3333  -4.1246  -3.7078   1.8222   0.00    0.0
2046 140599.000   44.408669317    8.929440822    64.6539   5   6   9.5316   4.7378  12.3315  -4.1247  -3.7061   1.8124   0.00    0.0
2046 140600.000   44.408647805    8.929453486    65.6063   5   6   9.5316   4.7377  12.3297  -4.1248  -3.7043   1.8026   0.00    0.0
2046 140601.000   44.408658479    8.929445683    65.4988   5   6   9.5317   4.7375  12.3279  -4.1249  -3.7026   1.7926   0.00    0.0
2046 140602.000   44.408664234    8.929440680    66.3558   5   6   9.5317   4.7374  12.3261  -4.1250  -3.7008   1.7827   0.00    0.0
2046 140603.000   44.408664181    8.929438253    66.9092   5   6   9.5317   4.7373  12.3244  -4.1251  -3.6991   1.7727   0.00    0.0
2046 140604.000   44.408669628    8.929430936    68.1343   5   6   9.5318   4.7372  12.3226  -4.1252  -3.6973   1.7626   0.00    0.0
2046 140605.000   44.408680017    8.929419072    68.9574   5   6   9.5318   4.7371  12.3208  -4.1253  -3.6956   1.7525   0.00    0.0
2046 140606.000   44.408686841    8.929408530    69.9366   5   6   9.5318   4.7370  12.3190  -4.1253  -3.6938   1.7423   0.00    0.0
2046 140607.000   44.408688781    8.929403489    70.6280   5   6   9.5319   4.7369  12.3172  -4.1254  -3.6921   1.7321   0.00    0.0
2046 140608.000   44.408707917    8.929392478    70.2498   5   6   9.5319   4.7368  12.3155  -4.1255  -3.6903   1.7218   0.00    0.0
2046 140609.000   44.408699076    8.929396172    71.1403   5   6   9.5319   4.7367  12.3137  -4.1256  -3.6885   1.7114   0.00    0.0
2046 140610.000   44.408718036    8.929380135    72.1060   5   6   9.5320   4.7366  12.3119  -4.1257  -3.6868   1.7010   0.00    0.0
2046 140611.000   44.408743182    8.929358985    73.5536   5   6   9.5320   4.7365  12.3101  -4.1258  -3.6850   1.6905   0.00    0.0
2046 140612.000   44.408732997    8.929355661    74.7967   5   6   9.5320   4.7363  12.3084  -4.1259  -3.6833   1.6800   0.00    0.0
2046 140613.000   44.408728814    8.929354804    75.9424   5   6   9.5321   4.7362  12.3066  -4.1260  -3.6815   1.6694   0.00    0.0
2046 140614.000   44.408766825    8.929332208    76.5245   5   6   9.5321   4.7361  12.3048  -4.1261  -3.6798   1.6588   0.00    0.0
2046 140615.000   44.408745408    8.929346858    76.7633   5   6   9.5321   4.7360  12.3031  -4.1262  -3.6780   1.6480   0.00    0.0
2046 140616.000   44.408760117    8.929335606    77.0318   5   6   9.5322   4.7359  12.3013  -4.1263  -3.6763   1.6373   0.00    0.0
2046 140617.000   44.408785057    8.929321165    77.2498   5   6   9.5322   4.7358  12.2995  -4.1264  -3.6745   1.6264   0.00    0.0
2046 140632.000   44.408773235    8.929354131    75.7470   5   6   9.5327   4.7342  12.2731  -4.1278  -3.6482   1.4546   0.00    0.0
2046 140633.000   44.408771647    8.929359754    74.8429   5   6   9.5327   4.7341  12.2714  -4.1279  -3.6464   1.4425   0.00    0.0
2046 140634.000   44.408756269    8.929373930    74.3758   5   6   9.5328   4.7340  12.2696  -4.1280  -3.6447   1.4303   0.00    0.0
2046 140635.000   44.408782696    8.929363598    73.3714   5   6   9.5328   4.7339  12.2679  -4.1281  -3.6429   1.4179   0.00    0.0
2046 140636.000   44.408747398    8.929392332    72.3444   5   6   9.5328   4.7338  12.2661  -4.1282  -3.6412   1.4055   0.00    0.0
2046 140637.000   44.408740562    8.929392737    72.8349   5   6   9.5329   4.7337  12.2644  -4.1283  -3.6394   1.3930   0.00    0.0
2046 140638.000   44.408746243    8.929390914    72.6641   5   6   9.5329   4.7336  12.2626  -4.1284  -3.6376   1.3803   0.00    0.0
2046 140639.000   44.408721992    8.929410378    72.7695   5   6   9.5329   4.7335  12.2609  -4.1285  -3.6359   1.3676   0.00    0.0
2046 140640.000   44.408739010    8.929396398    73.5159   5   6   9.5330   4.7333  12.2591  -4.1286  -3.6341   1.3547   0.00    0.0
2046 140641.000   44.408740069    8.929412420    71.8546   5   6   9.5330   4.7332  12.2574  -4.1287  -3.6324   1.3417   0.00    0.0
2046 140642.000   44.408686292    8.929443918    72.5842   5   6   9.5330   4.7331  12.2556  -4.1288  -3.6306   1.3286   0.