$GPGSA,A,1,,,,,,,,,,,,,,,*1E
$GPGSV,1,1,0,,,,,,,,,,,,,,,,*49
$GPGSA,A,1,,,,,,,,,,,,,,,*1E
$GPGSV,1,1,0,,,,,,,,,,,,,,,,*49
$GPGSA,A,1,,,,,,,,,,,,,,,*1E
$GPGSV,1,1,0,,,,,,,,,,,,,,,,*49
$GPGSA,A,1,,,,,,,,,,,,,,,*1E
$GPGSV,1,1,0,,,,,,,,,,,,,,,,*49
$GPGSA,A,1,,,,,,,,,,,,,,,*1E
$GPGSV,1,1,0,,,,,,,,,,,,,,,,*49
$GPGSA,A,1,,,,,,,,,,,,,,,*1E
$GPGSV,1,1,0,,,,,,,,,,,,,,,,*49
$GPGSA,A,1,,,,,,,,,,,,,,,*1E
$GPGSV,1,1,0,,,,,,,,,,,,,,,,*49
$GPGSA,A,1,,,,,,,,,,,,,,,*1E
$GPGSV,1,1,0,,,,,,,,,,,,,,,,*49
$GPGSA,A,1,,,,,,,,,,,,,,,*1E
$GPGSV,1,1,0,,,,,,,,,,,,,,,,*49
$GPGSA,A,1,,,,,,,,,,,,,,,*1E
$GPGSV,1,1,0,,,,,,,,,,,,,,,,*49
$GPGSA,A,1,,,,,,,,,,,,,,,*1E
$GPGSV,1,1,0,,,,,,,,,,,,,,,,*49
$GPGSA,A,1,,,,,,,,,,,,,,,*1E
$GPGSV,1,1,0,,,,,,,,,,,,,,,,*49
$GPGSA,A,1,,,,,,,,,,,,,,,*1E
$GPGSV,1,1,0,,,,,,,,,,,,,,,,*49
$GPGSA,A,1,,,,,,,,,,,,,,,*1E
$GPGSV,1,1,0,,,,,,,,,,,,,,,,*49
$GPGSA,A,1,,,,,,,,,,,,,,,*1E
$GPGSV,1,1,0,,,,,,,,,,,,,,,,*49
$GPGSA,A,1,,,,,,,,,,,,,,,*1E
$GPGSV,1,1,0,,,,,,,,,,,,,,,,*49
$GPGSA,A,1,,,,,,,,,,,,,,,*1E
$GPGSV,1,1,0,,,,,,,,,,,,,,,,*49
$GPGSA,A,1,,,,,,,,,,,,,,,*1E
$GPGSV,1,1,0,,,,,,,,,,,,,,,,*49
$GPGSA,A,1,,,,,,,,,,,,,,,*1E
$GPGSV,1,1,0,,,,,,,,,,,,,,,,*49
$GPGSA,A,1,,,,,,,,,,,,,,,*1E
$GPGSV,1,1,0,,,,,,,,,,,,,,,,*49
$GPGSA,A,1,,,,,,,,,,,,,,,*1E
$GPGSV,1,1,0,,,,,,,,,,,,,,,,*49
$GPGSA,A,1,,,,,,,,,,,,,,,*1E
$GPGSV,1,1,0,,,,,,,,,,,,,,,,*49
$GPRMC,161501.00,A,4424.5037059,N,00855.7465688,E,0.07,0.00,220319,0.0,E,A*3E
$GPGGA,161501.00,4424.5037059,N,00855.7465688,E,1,05,1.0,50.067,M,44.115,M,0.0,*70
$GPGSA,A,3,21,25,26,29,31,,,,,,,,3.4,1.8,2.9,1*23
$GPGSV,2,1,05,21,32,183,24,25,55,098,28,26,22,298,28,29,73,036,41,1*62
$GPGSV,2,2,05,31,56,279,44,,,,,,,,,,,,,1*5C
$GPRMC,161502.00,A,4424.5045394,N,00855.7478402,E,0.46,0.00,220319,0.0,E,A*33
$GPGGA,161502.00,4424.5045394,N,00855.7478402,E,1,05,1.0,48.702,M,44.115,M,0.0,*75
$GPGSA,A,3,21,25,26,29,31,,,,,,,,3.4,1.8,2.9,1*23
$GPGSV,2,1,05,21,32,183,24,25,55,098,28,26,22,298,28,29,73,036,40,1*63
$GPGSV,2,2,05,31,56,279,44,,,,,,,,,,,,,1*5C
$GPRMC,161503.00,A,4424.5039380,N,00855.7461725,E,0.38,0.00,220319,0.0,E,A*3B
$GPGGA,161503.00,4424.5039380,N,00855.7461725,E,1,05,1.0,53.701,M,44.115,M,0.0,*7D
$GPGSA,A,3,21,25,26,29,31,,,,,,,,3.4,1.8,2.9,1*23
$GPGSV,2,1,05,21,32,183,24,25,55,098,28,26,22,298,28,29,73,036,40,1*63
$GPGSV,2,2,05,31,56,279,44,,,,,,,,,,,,,1*5C
$GPRMC,161504.00,A,4424.5041754,N,00855.7460718,E,0.76,0.00,220319,0.0,E,A*3B
$GPGGA,161504.00,4424.5041754,N,00855.7460718,E,1,05,1.0,57.088,M,44.115,M,0.0,*75
$GPGSA,A,3,21,25,26,29,31,,,,,,,,3.4,1.8,2.9,1*23
$GPGSV,2,1,05,21,32,183,24,25,55,098,28,26,22,298,28,29,73,036,40,1*63
$GPGSV,2,2,05,31,56,279,44,,,,,,,,,,,,,1*5C
$GPRMC,161505.00,A,4424.5062567,N,00855.7469874,E,0.07,0.00,220319,0.0,E,A*33
$GPGGA,161505.00,4424.5062567,N,00855.7469874,E,1,05,1.0,51.566,M,44.115,M,0.0,*78
$GPGSA,A,3,21,25,26,29,31,,,,,,,,3.4,1.8,2.9,1*23
$GPGSV,2,1,05,21,32,183,24,25,55,098,28,26,22,298,28,29,73,036,40,1*63
$GPGSV,2,2,05,31,56,279,44,,,,,,,,,,,,,1*5C
$GPRMC,161506.00,A,4424.5079473,N,00855.7481262,E,0.24,0.00,220319,0.0,E,A*34
$GPGGA,161506.00,4424.5079473,N,00855.7481262,E,1,05,1.0,52.549,M,44.115,M,0.0,*70
$GPGSA,A,3,21,25,26,29,31,,,,,,,,3.4,1.8,2.9,1*23
$GPGSV,2,1,05,21,32,183,25,25,55,098,28,26,22,298,28,29,73,036,40,1*62
$GPGSV,2,2,05,31,56,279,44,,,,,,,,,,,,,1*5C
$GPRMC,161507.00,A,4424.5112084,N,00855.7490582,E,0.42,0.00,220319,0.0,E,A*3C
$GPGGA,161507.00,4424.5112084,N,00855.7490582,E,1,05,1.0,47.169,M,44.114,M,0.0,*7B
$GPGSA,A,3,21,25,26,29,31,,,,,,,,3.4,1.8,2.9,1*23
$GPGSV,2,1,05,21,32,183,25,25,55,098,28,26,22,298,27,29,73,036,40,1*6D
$GPGSV,2,2,05,31,56,279,44,,,,,,,,,,,,,1*5C
$GPRMC,161508.00,A,4424.5125567,N,00855.7502935,E,0.52,0.00,220319,0.0,E,A*34
$GPGGA,161508.00,4424.5125567,N,00855.7502935,E,1,05,1.0,44.682,M,44.114,M,0.0,*73
$GPGSA,A,3,21,25,26,29,31,,,,,,,,3.4,1.8,2.9,1*23
$GPGSV,2,1,05,21,32,183,25,25,54,098,28,26,22,298,27,29,73,036,41,1*6D
$GPGSV,2,2,05,31,56,279,44,,,,,,,,,,,,,1*5C
$GPRMC,161509.00,A,4424.5131973,N,00855.7499845,E,0.56,0.00,220319,0.0,E,A*38
$GPGGA,161509.00,4424.5131973,N,00855.7499845,E,1,05,1.0,47.157,M,44.114,M,0.0,*77
$GPGSA,A,3,21,25,26,29,31,,,,,,,,3.4,1.8,2.9,1*23
$GPGSV,2,1,05,21,32,183,25,25,54,098,28,26,22,298,27,29,73,036,40,1*6C
$GPGSV,2,2,05,31,56,279,44,,,,,,,,,,,,,1*5C
$GPRMC,161510.00,A,4424.5143781,N,00855.7508506,E,0.70,0.00,220319,0.0,E,A*31
$GPGGA,161510.00,4424.5143781,N,00855.7508506,E,1,05,1.0,46.083,M,44.114,M,0.0,*73
$GPGSA,A,3,21,25,26,29,31,,,,,,,,3.4,1.8,2.9,1*23
$GPGSV,2,1,05,21,32,183,26,25,54,098,29,26,22,298,27,29,73,036,40,1*6E
$GPGSV,2,2,05,31,56,279,44,,,,,,,,,,,,,1*5C
$GPRMC,161511.00,A,4424.5166459,N,00855.7507456,E,0.26,0.00,220319,0.0,E,A*39
$GPGGA,161511.00,4424.5166459,N,00855.7507456,E,1,05,1.0,47.307,M,44.114,M,0.0,*76
$GPGSA,A,3,21,25,26,29,31,,,,,,,,3.4,1.8,2.9,1*23
$GPGSV,2,1,05,21,32,183,26,25,54,098,29,26,22,298,27,29,73,036,40,1*6E
$GPGSV,2,2,05,31,56,279,44,,,,,,,,,,,,,1*5C
$GPRMC,161512.00,A,4424.5173048,N,00855.7492923,E,0.22,0.00,220319,0.0,E,A*3C
$GPGGA,161512.00,4424.5173048,N,00855.7492923,E,1,05,1.0,49.107,M,44.114,M,0.0,*7B
$GPGSA,A,3,21,25,26,29,31,,,,,,,,3.4,1.8,2.9,1*23
$GPGSV,2,1,05,21,32,183,26,25,54,098,29,26,22,298,27,29,73,036,40,1*6E
$GPGSV,2,2,05,31,56,279,45,,,,,,,,,,,,,1*5D
$GPRMC,161513.00,A,4424.5183679,N,00855.7500413,E,0.32,0.00,220319,0.0,E,A*33
$GPGGA,161513.00,4424.5183679,N,00855.7500413,E,1,05,1.0,48.544,M,44.114,M,0.0,*77
$GPGSA,A,3,21,25,26,29,31,,,,,,,,3.4,1.8,2.9,1*23
$GPGSV,2,1,05,21,32,183,26,25,54,098,28,26,22,298,27,29,73,036,40,1*6F
$GPGSV,2,2,05,31,56,279,45,,,,,,,,,,,,,1*5D
$GPRMC,161514.00,A,4424.5185789,N,00855.7488607,E,0.23,0.00,220319,0.0,E,A*3A
$GPGGA,161514.00,4424.5185789,N,00855.7488607,E,1,05,1.0,48.574,M,44.114,M,0.0,*7D
$GPGSA,A,3,21,25,26,29,31,,,,,,,,3.4,1.8,2.9,1*23
$GPGSV,2,1,05,21,32,183,25,25,54,098,29,26,22,298,26,29,73,036,40,1*6C
$GPGSV,2,2,05,31,56,279,45,,,,,,,,,,,,,1*5D
$GPGSA,A,1,,,,,,,,,,,,,,,*1E
$GPGSV,1,1,0,,,,,,,,,,,,,,,,*49
$GPGSA,A,1,,,,,,,,,,,,,,,*1E
$GPGSV,1,1,0,,,,,,,,,,,,,,,,*49
$GPGSA,A,1,,,,,,,,,,,,,,,*1E
$GPGSV,1,1,0,,,,,,,,,,,,,,,,*49
$GPGSA,A,1,,,,,,,,,,,,,,,*1E
$GPGSV,1,1,0,,,,,,,,,,,,,,,,*49
$GPGSA,A,1,,,,,,,,,,,,,,,*1E
$GPGSV,1,1,0,,,,,,,,,,,,,,,,*49
$GPGSA,A,1,,,,,,,,,,,,,,,*1E
$GPGSV,1,1,0,,,,,,,,,,,,,,,,*49
$GPGSA,A,1,,,,,,,,,,,,,,,*1E
$GPGSV,1,1,0,,,,,,,,,,,,,,,,*49
$GPGSA,A,1,,,,,,,,,,,,,,,*1E
$GPGSV,1,1,0,,,,,,,,,,,,,,,,*49
$GPGSA,A,1,,,,,,,,,,,,,,,*1E
$GPGSV,1,1,0,,,,,,,,,,,,,,,,*49
$GPGSA,A,1,,,,,,,,,,,,,,,*1E
$GPGSV,1,1,0,,,,,,,,,,,,,,,,*49
$GPGSA,A,1,,,,,,,,,,,,,,,*1E
$GPGSV,1,1,0,,,,,,,,,,,,,,,,*49
$GPGSA,A,1,,,,,,,,,,,,,,,*1E
$GPGSV,1,1,0,,,,,,,,,,,,,,,,*49
$GPGSA,A,1,,,,,,,,,,,,,,,*1E
$GPGSV,1,1,0,,,,,,,,,,,,,,,,*49
$GPGSA,A,1,,,,,,,,,,,,,,,*1E
$GPGSV,1,1,0,,,,,,,,,,,,,,,,*49
$GPGSA,A,1,,,,,,,,,,,,,,,*1E
$GPGSV,1,1,0,,,,,,,,,,,,,,,,*49
$GPGSA,A,1,,,,,,,,,,,,,,,*1E
$GPGSV,1,1,0,,,,,,,,,,,,,,,,*49
$GPGSA,A,1,,,,,,,,,,,,,,,*1E
$GPGSV,1,1,0,,,,,,,,,,,,,,,,*49
$GPGSA,A,1,,,,,,,,,,,,,,,*1E
$GPGSV,1,1,0,,,,,,,,,,,,,,,,*49
$GPGSA,A,1,,,,,,,,,,,,,,,*1E
$GPGSV,1,1,0,,,,,,,,,,,,,,,,*49
$GPGSA,A,1,,,,,,,,,,,,,,,*1E
$GPGSV,1,1,0,,,,,,,,,,,,,,,,*49
$GPGSA,A,1,,,,,,,,,,,,,,,*1E
$GPGSV,1,1,0,,,,,,,,,,,,,,,,*49
$GPGSA,A,1,,,,,,,,,,,,,,,*1E
$GPGSV,1,1,0,,,,,,,,,,,,,,,,*49
$GPGSA,A,1,,,,,,,,,,,,,,,*1E
$GPGSV,1,1,0,,,,,,,,,,,,,,,,*49
$GPGSA,A,1,,,,,,,,,,,,,,,*1E
$GPGSV,1,1,0,,,,,,,,,,,,,,,,*49
$GPGSA,A,1,,,,,,,,,,,,,,,*1E
$GPGSV,1,1,0,,,,,,,,,,,,,,,,*49
$GPGSA,A,1,,,,,,,,,,,,,,,*1E
$GPGSV,1,1,0,,,,,,,,,,,,,,,,*49
$GPGSA,A,1,,,,,,,,,,,,,,,*1E
$GPGSV,1,1,0,,,,,,,,,,,,,,,,*49
